,city,cloudiness,country,date,humidity,lat,lon,max temp,wind speed
0,azare,0,NG,1523227806,33,11.67,10.19,71.14,4.43
1,cabo san lucas,5,MX,1523224440,44,22.89,-109.91,86.0,12.75
2,warrnambool,0,AU,1523227991,92,-38.38,142.48,62.86,1.63
3,paamiut,76,GL,1523228034,95,61.99,-49.67,30.73,18.86
4,sao miguel do araguaia,56,BR,1523227939,96,-13.28,-50.16,72.49,3.87
5,mogadishu,12,SO,1523227987,100,2.04,45.34,83.65,3.87
6,notse,88,TG,1523227877,87,6.95,1.17,76.0,4.99
7,nanortalik,88,GL,1523227778,100,60.14,-45.24,27.76,9.46
8,krasnoarmeysk,0,RU,1523224800,52,56.12,38.15,41.0,8.95
9,new norfolk,75,AU,1523226600,76,-42.78,147.06,55.4,19.46
10,zhigansk,88,RU,1523228027,74,66.77,123.37,18.76,10.47
11,katsuura,0,JP,1523224800,50,33.93,134.5,51.8,6.93
12,kalabo,24,ZM,1523227918,94,-15.0,22.67,64.21,3.65
13,boralday,20,KZ,1523224800,93,43.36,76.86,35.6,2.19
14,taber,90,CA,1523225400,85,49.79,-112.14,23.0,8.05
15,kudahuvadhoo,68,MV,1523228028,100,2.67,72.89,84.28,4.43
16,ixtapa,5,MX,1523223900,65,20.71,-105.21,78.8,12.75
17,florian,1,US,1523226900,30,48.44,-96.63,30.2,3.36
18,torbay,90,CA,1523224800,100,47.66,-52.73,30.2,17.22
19,vestmannaeyjar,64,IS,1523227992,87,63.44,-20.27,40.54,24.23
20,puqi,0,CN,1523227806,64,29.72,113.88,62.32,9.57
21,plyussa,20,RU,1523227823,89,58.42,29.37,37.66,4.21
22,grand gaube,40,MU,1523224800,78,-20.01,57.66,78.8,4.7
23,yurla,0,RU,1523227891,82,59.33,54.32,24.7,7.45
24,college,1,US,1523224680,35,64.86,-147.8,42.8,9.17
25,lukovetskiy,0,RU,1523224800,100,64.29,41.92,21.2,2.24
26,edd,0,ER,1523227923,66,13.93,41.69,74.11,1.97
27,sivaki,0,RU,1523227883,41,52.63,126.75,39.01,3.65
28,charyshskoye,24,RU,1523227963,85,51.4,83.56,30.1,6.44
29,mana,0,RS,1523224800,66,43.52,20.24,55.4,3.36
30,port lincoln,36,AU,1523227798,73,-34.72,135.86,73.3,10.8
31,marzuq,0,YE,1523227964,90,14.4,46.47,50.44,2.3
32,lorengau,24,PG,1523227943,100,-2.02,147.27,82.93,3.2
33,saint-pierre,0,FR,1523224800,76,48.95,4.24,59.0,8.05
34,shache,48,CN,1523227938,81,38.42,77.24,39.91,3.42
35,ikwiriri,100,TZ,1523227971,100,-7.96,38.99,75.46,2.3
36,vilhena,75,BR,1523224800,94,-12.74,-60.15,75.2,3.36
37,barrow,56,AR,1523227715,74,-38.31,-60.23,64.03,5.99
38,pirenopolis,75,BR,1523224800,93,-15.85,-48.96,66.2,3.36
39,caravelas,76,BR,1523227896,100,-17.73,-39.27,81.13,13.6
40,ribeira grande,0,PT,1523227740,100,38.52,-28.7,60.16,4.76
41,muscat,0,OM,1523224200,34,23.6,58.55,82.4,4.7
42,saint-augustin,90,FR,1523224800,93,44.83,-0.61,51.8,5.82
43,husavik,56,CA,1523227764,65,50.56,-96.99,24.43,5.66
44,miraflores,92,CO,1523228034,100,5.2,-73.14,53.95,2.08
45,nova olimpia,0,BR,1523227842,91,-14.8,-57.29,77.98,2.42
46,fare,68,PF,1523227821,100,-16.7,-151.02,82.57,7.78
47,bara,56,NG,1523227924,16,10.41,10.6,84.73,8.01
48,grindavik,75,IS,1523226600,69,63.84,-22.43,39.2,23.04
49,birin,0,SY,1523227844,85,35.01,36.67,47.2,4.65
50,labuhan,20,ID,1523227979,85,-2.54,115.51,76.81,2.42
51,ulladulla,0,AU,1523224800,43,-35.36,150.48,69.8,1.12
52,biltine,0,TD,1523227918,24,14.53,20.93,67.0,8.01
53,wanning,0,AT,1523224200,66,48.64,13.53,53.6,3.36
54,sorong,24,ID,1523227891,100,-0.86,131.25,81.76,4.09
55,lao cai,8,VN,1523227933,91,22.48,103.95,52.06,1.3
56,catalao,44,BR,1523227932,88,-18.17,-47.95,69.61,5.99
57,taoudenni,64,ML,1523228031,15,22.68,-3.98,74.11,8.12
58,tigil,56,RU,1523227929,89,57.8,158.67,31.09,11.03
59,port moresby,20,PG,1523224800,88,-9.47,147.16,80.6,5.82
60,dingzhou,0,CN,1523224800,56,38.51,115.0,39.2,2.24
61,aksarka,88,RU,1523227796,83,66.56,67.8,21.46,5.44
62,peace river,40,CA,1523224800,53,56.23,-117.29,24.8,6.93
63,gushikawa,20,JP,1523226600,63,26.35,127.87,62.6,4.7
64,baiyin,0,CN,1523224800,68,36.55,104.13,32.0,4.47
65,saldanha,92,PT,1523228003,100,41.42,-6.55,41.53,6.67
66,butaritari,0,KI,1523227814,100,3.07,172.79,81.4,8.9
67,prince albert,5,CA,1523224800,45,53.2,-105.75,23.0,4.7
68,chuy,92,UY,1523227841,89,-33.69,-53.46,68.26,6.78
69,raudeberg,92,NO,1523226000,93,61.99,5.14,41.0,3.36
70,qinhuangdao,0,CN,1523227912,37,39.94,119.59,48.19,6.11
71,vieste,8,IT,1523227879,90,41.88,16.18,59.17,17.96
72,cherskiy,76,RU,1523227721,84,68.75,161.3,12.55,2.19
73,manokwari,8,ID,1523227818,100,-0.87,134.08,82.12,5.21
74,birjand,0,IR,1523224800,66,32.86,59.22,51.8,4.7
75,hobart,75,AU,1523224800,82,-42.88,147.33,55.4,17.22
76,san quintin,75,PH,1523224800,83,17.54,120.52,73.4,3.87
77,saladoblanco,64,CO,1523227890,95,1.99,-76.05,60.43,1.74
78,vila velha,0,BR,1523224800,88,-3.71,-38.6,78.8,4.7
79,cam ranh,80,VN,1523227743,100,11.92,109.15,73.75,14.27
80,kyren,92,RU,1523227964,91,51.68,102.13,28.03,2.64
81,chicama,40,PE,1523224800,83,-7.84,-79.15,71.6,6.93
82,victoria,75,BN,1523226600,94,5.28,115.24,78.8,7.78
83,zanjan,12,IR,1523227915,79,36.67,48.48,20.83,2.19
84,richards bay,64,ZA,1523227858,91,-28.77,32.06,70.42,1.74
85,westport,0,IE,1523227920,96,53.8,-9.52,39.1,2.75
86,norsup,88,VU,1523227925,100,-16.07,167.38,79.06,9.46
87,ponta do sol,48,BR,1523227794,91,-20.63,-46.0,66.55,3.09
88,kieta,80,PG,1523227859,89,-6.22,155.63,83.92,7.9
89,danilov,24,RU,1523227845,79,58.19,40.17,25.69,2.98
90,provideniya,40,RU,1523224800,79,64.42,-173.23,19.4,15.66
91,la romana,40,DO,1523224800,78,18.43,-68.97,82.4,13.87
92,nosy varika,88,MG,1523227783,100,-20.58,48.53,72.31,4.54
93,san policarpo,80,PH,1523227816,100,12.18,125.51,78.52,7.45
94,hofn,88,IS,1523228028,100,64.25,-15.21,35.95,9.24
95,longyearbyen,40,NO,1523224200,78,78.22,15.63,14.0,3.36
96,jamestown,0,AU,1523227815,28,-33.21,138.6,75.73,4.32
97,saint-philippe,90,CA,1523226900,78,45.36,-73.48,32.0,18.34
98,simao,24,CN,1523227968,94,22.76,100.79,55.21,1.97
99,seydi,0,NE,1523227999,34,13.34,7.75,68.71,4.21
100,terra santa,32,BR,1523227922,82,-2.1,-56.49,80.23,4.43
101,pamanukan,48,ID,1523227813,100,-6.28,107.82,81.31,3.98
102,sindor,68,RU,1523227880,86,62.87,51.9,26.5,2.75
103,marevo,0,BA,1523224800,76,43.57,18.7,50.0,3.36
104,kisangani,76,CD,1523227900,98,0.52,25.21,72.49,2.19
105,carballo,75,ES,1523226600,87,43.21,-8.69,48.2,2.24
106,kamenka,32,RU,1523227813,86,53.19,44.05,29.29,9.91
107,avarua,75,CK,1523224800,78,-21.21,-159.78,82.4,4.7
108,svetlogorsk,75,RU,1523224800,85,53.14,59.15,32.0,13.42
109,waddan,76,LY,1523227781,29,29.16,16.14,63.76,6.89
110,monrovia,40,LR,1523223000,94,6.33,-10.8,78.8,6.11
111,mount gambier,0,AU,1523227578,78,-37.83,140.78,65.02,3.42
112,nalut,0,LY,1523227835,31,31.86,10.98,62.68,6.78
113,whitianga,36,NZ,1523227960,100,-36.83,175.7,67.9,11.03
114,kreminna,0,UA,1523227887,67,49.05,38.22,41.44,8.01
115,busselton,88,AU,1523227720,100,-33.64,115.35,67.45,22.32
116,morehead,1,US,1523224380,36,38.18,-83.43,46.4,4.7
117,klaksvik,68,FO,1523226000,64,62.23,-6.59,33.8,5.82
118,tomari,88,RU,1523228022,90,47.76,142.06,36.58,7.67
119,karhal,0,IN,1523227933,62,27.0,78.94,72.76,6.55
120,gravdal,92,NO,1523226000,93,59.79,5.78,42.8,11.41
121,wakkanai,8,JP,1523227971,95,45.41,141.67,40.36,24.56
122,ensenada,8,MX,1523227938,40,31.86,-116.62,74.38,3.98
123,castro,8,CL,1523227729,96,-42.48,-73.76,48.1,2.75
124,karratha,92,AU,1523227790,58,-20.74,116.85,82.66,8.23
125,dikson,76,RU,1523227715,92,73.51,80.55,23.08,21.77
126,shelburne,75,CA,1523224800,54,44.08,-80.2,33.8,8.05
127,orodara,20,BF,1523224800,88,10.98,-4.92,73.4,6.93
128,gamba,20,CN,1523227850,65,28.28,88.52,5.26,1.63
129,hermanus,0,ZA,1523227755,81,-34.42,19.24,51.88,2.75
130,pankrushikha,44,RU,1523227962,90,53.83,80.35,32.44,11.92
131,kamogawa,20,JP,1523226600,70,35.13,140.08,53.6,12.75
132,seoul,90,KR,1523226600,89,37.57,126.98,37.4,6.93
133,hervey bay,76,AU,1523227986,93,-25.3,152.85,75.91,11.92
134,bandarbeyla,20,SO,1523227945,100,9.49,50.81,80.41,2.19
135,lakatoro,88,VU,1523227794,100,-16.11,167.42,79.06,9.46
136,muhos,76,FI,1523226000,63,64.81,26.0,28.4,9.17
137,luderitz,0,NA,1523227937,83,-26.65,15.16,60.25,3.65
138,hvide sande,48,DK,1523226000,87,56.01,8.13,51.8,3.36
139,aloleng,0,PH,1523227974,86,16.13,119.78,81.94,3.87
140,terrak,76,NO,1523226000,55,65.09,12.37,33.8,9.17
141,hithadhoo,24,MV,1523227759,100,-0.6,73.08,83.38,1.97
142,peresichna,0,UA,1523226600,78,50.02,35.98,41.0,8.95
143,nemuro,92,JP,1523227764,93,43.32,145.57,36.85,15.05
144,basoko,64,CD,1523227769,97,1.23,23.61,72.76,2.75
145,guerrero negro,0,MX,1523227865,61,27.97,-114.04,71.77,11.81
146,yumen,20,CN,1523228007,35,40.29,97.04,42.43,10.47
147,tiksi,48,RU,1523227749,86,71.64,128.87,6.88,7.23
148,vila,75,IT,1523224500,100,45.18,8.4,57.2,6.93
149,kandrian,8,PG,1523227944,82,-6.21,149.55,84.1,5.44
150,stokmarknes,20,NO,1523227885,100,68.56,14.91,33.25,13.94
151,khash,8,IR,1523227874,49,28.22,61.21,49.63,2.08
152,bodden town,40,KY,1523224800,74,19.28,-81.25,84.2,14.99
153,siocon,68,PH,1523228025,100,11.03,124.04,81.22,10.69
154,atasu,76,KZ,1523227970,74,48.68,71.64,38.65,19.08
155,walvis bay,64,NA,1523224800,82,-22.95,14.51,62.6,1.12
156,sangar,32,RU,1523227908,63,63.92,127.47,27.49,2.98
157,hirara,20,JP,1523224800,76,24.8,125.28,57.2,2.24
158,salalah,20,OM,1523224200,78,17.01,54.1,80.6,4.7
159,baie-comeau,1,CA,1523224800,33,49.22,-68.15,28.4,9.17
160,rikitea,64,PF,1523227743,100,-23.12,-134.97,76.72,11.7
161,rach gia,12,VN,1523228037,76,10.02,105.08,77.26,10.47
162,bambous virieux,40,MU,1523224800,78,-20.34,57.76,78.8,4.7
163,geraldton,20,CA,1523224800,33,49.72,-86.95,30.2,5.82
164,shush,92,RU,1523227989,99,55.6,89.45,33.25,4.76
165,sao joao da barra,0,BR,1523224800,88,-21.64,-41.05,75.2,2.24
166,marienburg,0,DE,1523226000,71,52.12,9.98,57.2,4.7
167,severo-yeniseyskiy,0,RU,1523227799,74,60.37,93.04,9.58,2.42
168,the pas,40,CA,1523224800,32,53.82,-101.24,24.8,4.7
169,san patricio,0,PY,1523227801,77,-26.98,-56.83,72.13,1.97
170,kaitangata,80,NZ,1523227864,90,-46.28,169.85,47.56,13.04
171,komsomolskiy,24,RU,1523227876,77,67.55,63.78,16.15,9.35
172,cayenne,75,GF,1523226600,83,4.94,-52.33,80.6,6.93
173,berlevag,90,NO,1523222400,73,70.86,29.09,26.6,5.82
174,tayoltita,0,MX,1523228002,18,24.11,-105.93,81.04,2.08
175,kopavogur,75,IS,1523226600,69,64.11,-21.91,39.2,23.04
176,rochelle,90,US,1523226900,29,41.92,-89.07,42.8,8.05
177,predivinsk,0,RU,1523227940,72,57.07,93.44,18.76,2.3
178,jining,0,CN,1523228019,69,35.41,116.58,55.48,13.04
179,haverhill,90,GB,1523227020,100,52.08,0.44,50.0,4.7
180,te anau,76,NZ,1523227852,87,-45.41,167.72,45.4,3.42
181,muisne,20,EC,1523227794,72,0.61,-80.02,77.35,5.21
182,basco,92,US,1523226900,92,40.33,-91.2,32.0,10.29
183,armizonskoye,88,RU,1523227960,98,55.95,67.67,31.63,10.47
184,kovylkino,44,RU,1523227882,86,54.04,43.91,31.0,11.03
185,ilulissat,56,GL,1523224200,86,69.22,-51.1,26.6,8.05
186,albany,75,US,1523224440,37,42.65,-73.75,37.4,17.22
187,amantea,20,IT,1523224200,51,39.13,16.07,62.6,25.28
188,xuddur,88,SO,1523227837,96,4.12,43.89,68.17,2.98
189,pemba,40,MZ,1523224800,100,-12.97,40.52,75.2,6.93
190,arraial do cabo,92,BR,1523227747,90,-22.97,-42.02,77.17,7.9
191,octeville,90,FR,1523226600,100,49.63,-1.64,46.4,5.82
192,qaqortoq,40,GL,1523224200,58,60.72,-46.03,24.8,9.17
193,kahului,75,US,1523224560,88,20.89,-156.47,78.8,17.22
194,lajas,0,CU,1523224740,74,22.41,-80.29,82.4,11.41
195,winslow,90,GB,1523226000,100,51.94,-0.88,50.0,8.05
196,high point,90,US,1523225700,37,35.96,-80.01,51.8,4.7
197,araouane,0,ML,1523228003,16,18.9,-3.53,71.14,4.99
198,port hardy,40,CA,1523224800,58,50.7,-127.42,57.2,13.87
199,gat,0,SN,1523224800,57,14.69,-16.54,75.2,6.93
200,puerto cabello,40,VE,1523224800,58,10.47,-68.01,86.0,9.17
201,agidel,0,RU,1523227752,92,55.9,53.94,32.26,13.49
202,kodinar,24,IN,1523227893,93,20.79,70.7,72.4,5.44
203,mataura,92,NZ,1523227717,100,-46.19,168.86,46.03,7.34
204,talaya,80,RU,1523227956,100,55.79,84.89,31.36,7.0
205,madang,32,PG,1523227957,100,-5.21,145.81,78.34,4.43
206,fukue,20,JP,1523224800,75,35.03,136.69,44.6,10.29
207,ketchikan,90,US,1523224380,57,55.34,-131.65,51.8,10.29
208,khatanga,64,RU,1523227719,76,71.98,102.47,-3.11,3.2
209,pangkalanbuun,48,ID,1523227977,96,-2.68,111.62,76.45,4.09
210,marquette,5,US,1523227620,45,46.54,-87.4,28.4,10.29
211,fortuna,0,ES,1523226600,50,38.18,-1.13,57.2,9.17
212,havre-saint-pierre,90,CA,1523224800,86,50.23,-63.6,26.6,9.17
213,noumea,0,NC,1523226600,57,-22.28,166.46,80.6,13.87
214,arman,76,RU,1523224800,52,59.7,150.17,19.4,11.18
215,chany,92,RU,1523227892,95,55.31,76.76,32.08,14.27
216,dongobesh,80,TZ,1523227996,95,-4.07,35.37,59.53,2.98
217,tempio pausania,40,IT,1523224800,93,40.9,9.1,57.2,3.36
218,ocosingo,24,MX,1523227906,53,16.91,-92.09,77.26,1.97
219,tekeli,0,KZ,1523227931,69,44.86,78.76,24.25,2.42
220,kutum,0,SD,1523227748,19,14.2,24.66,59.98,9.69
221,canyon,1,US,1523225700,19,34.98,-101.92,80.6,19.46
222,san ramon,75,NI,1523224800,54,12.92,-85.84,78.8,1.74
223,qaanaaq,0,GL,1523227726,76,77.48,-69.36,-4.28,7.11
224,teguise,20,ES,1523224800,72,29.06,-13.56,62.6,20.8
225,agucadoura,75,PT,1523224800,87,41.43,-8.78,46.4,18.34
226,saint anthony,90,US,1523225880,86,43.97,-111.68,50.0,5.82
227,makakilo city,75,US,1523226960,100,21.35,-158.09,78.8,5.82
228,yellowknife,5,CA,1523224800,33,62.45,-114.38,28.4,4.7
229,boa vista,40,BR,1523224800,41,2.82,-60.67,93.2,12.75
230,tautira,40,PF,1523226600,66,-17.73,-149.15,86.0,12.75
231,fort nelson,40,CA,1523224800,27,58.81,-122.69,37.4,3.36
232,mastic beach,75,US,1523225700,35,40.77,-72.85,42.8,14.99
233,saint george,20,GR,1523224200,70,39.45,22.34,48.2,4.7
234,brenham,75,US,1523225700,72,30.17,-96.4,62.6,6.93
235,alofi,0,NU,1523224800,69,-19.06,-169.92,82.4,12.75
236,hambantota,0,LK,1523227819,100,6.12,81.12,81.04,10.02
237,itarema,92,BR,1523227760,95,-2.92,-39.92,76.81,2.86
238,lerwick,92,GB,1523226000,93,60.15,-1.15,42.8,16.11
239,san jose de guanipa,88,VE,1523227954,43,8.89,-64.17,87.16,14.94
240,angren,92,UZ,1523228023,96,41.01,70.08,43.6,1.97
241,punta arenas,90,CL,1523224800,76,-53.16,-70.91,48.2,16.11
242,naze,40,NG,1523224800,83,5.43,7.07,80.6,5.82
243,lagoa,40,PT,1523224800,76,37.14,-8.45,53.6,17.22
244,durango,1,US,1523224380,25,37.28,-107.88,64.4,23.04
245,marti,20,CU,1523224200,33,21.15,-77.45,89.6,10.29
246,mitsamiouli,24,KM,1523227855,100,-11.38,43.28,81.85,5.99
247,monster,92,NL,1523226960,87,52.03,4.17,53.6,3.36
248,barcelos,75,PT,1523224800,87,41.53,-8.62,46.4,18.34
249,kundiawa,56,PG,1523227740,90,-6.02,144.97,64.93,2.08
250,bathsheba,20,BB,1523224800,78,13.22,-59.52,78.8,14.99
251,severo-kurilsk,68,RU,1523227878,96,50.68,156.12,30.1,21.54
252,benguela,0,AO,1523227862,100,-12.58,13.4,75.55,8.12
253,kerrville,1,US,1523225700,44,30.05,-99.14,75.2,14.99
254,ngunguru,44,NZ,1523227774,98,-35.62,174.5,68.71,15.17
255,sol-iletsk,48,RU,1523227791,93,51.16,55.0,31.99,13.38
256,hami,0,CN,1523227938,65,42.84,93.51,43.33,2.98
257,namibe,8,AO,1523227985,100,-15.19,12.15,77.08,11.14
258,leningradskiy,8,RU,1523227873,88,69.38,178.42,10.12,14.83
259,martin,75,US,1523225700,45,36.34,-88.85,46.4,9.17
260,channagiri,0,IN,1523227980,91,14.03,75.92,65.83,4.65
261,necochea,68,AR,1523227758,93,-38.55,-58.74,63.4,9.57
262,beringovskiy,88,RU,1523228009,100,63.05,179.32,27.85,20.31
263,pyshma,76,RU,1523228018,75,56.95,63.25,23.35,7.23
264,atuona,0,PF,1523227714,100,-9.8,-139.03,81.67,13.27
265,nisia floresta,40,BR,1523224800,88,-6.09,-35.21,78.8,5.82
266,qingdao,0,CN,1523224800,36,36.09,120.35,48.2,11.18
267,bogalusa,90,US,1523226900,67,30.79,-89.85,59.0,4.7
268,kulhudhuffushi,8,MV,1523228029,100,6.62,73.07,84.55,4.54
269,ingham,76,AU,1523227924,98,-18.65,146.16,78.34,15.17
270,east london,32,ZA,1523227866,100,-33.02,27.91,73.93,27.36
271,cap malheureux,40,MU,1523224800,78,-19.98,57.61,78.8,4.7
272,mount isa,100,AU,1523226600,45,-20.73,139.49,84.2,5.82
273,fairbanks,1,US,1523224680,35,64.84,-147.72,42.8,9.17
274,faanui,32,PF,1523227741,100,-16.48,-151.75,82.48,6.11
275,byron bay,0,AU,1523226600,65,-28.65,153.62,77.0,2.24
276,kavieng,68,PG,1523227886,100,-2.57,150.8,85.0,4.21
277,zhangjiakou,0,CN,1523227780,78,40.77,114.88,31.81,2.53
278,lukaya,40,UG,1523224800,88,-0.15,31.87,68.0,10.29
279,pampa,1,US,1523225700,24,35.54,-100.96,68.0,14.99
280,kanevskaya,0,RU,1523228017,62,46.07,38.97,54.31,18.3
281,souillac,100,FR,1523226600,93,45.6,-0.6,53.6,2.24
282,clyde river,40,CA,1523224800,76,70.47,-68.59,-5.81,19.46
283,hovd,75,NO,1523224200,95,63.83,10.7,39.2,4.7
284,narsaq,40,GL,1523224200,58,60.91,-46.05,24.8,9.17
285,isangel,88,VU,1523227936,100,-19.55,169.27,79.78,23.0
286,banda aceh,36,ID,1523227928,100,5.56,95.32,74.38,4.21
287,portland,90,US,1523225820,66,45.52,-122.67,53.6,14.99
288,constitucion,5,MX,1523223900,5,23.99,-104.67,84.2,6.93
289,todos santos,5,MX,1523224440,12,23.45,-110.23,86.0,17.22
290,tierralta,12,CO,1523228020,75,8.17,-76.06,80.5,8.46
291,faya,0,SA,1523224800,67,18.39,42.45,60.8,4.7
292,ostrovnoy,0,RU,1523227851,68,68.05,39.51,9.67,6.22
293,podor,0,MR,1523224800,23,16.65,-14.96,87.8,4.7
294,ancud,36,CL,1523228024,88,-41.87,-73.83,50.26,3.98
295,chokurdakh,12,RU,1523227722,94,70.62,147.9,0.76,9.46
296,pathardi,80,IN,1523227830,69,19.17,75.17,66.82,1.97
297,masumbwe,92,TZ,1523227752,99,-3.65,32.16,62.86,2.75
298,upernavik,20,GL,1523227740,73,72.79,-56.15,18.76,8.68
299,okha,48,RU,1523228031,100,53.59,142.95,24.88,7.11
300,lebu,90,ET,1523224800,72,8.96,38.73,59.0,2.75
301,tuktoyaktuk,75,CA,1523224800,77,69.44,-133.03,5.0,9.17
302,alice springs,0,AU,1523226600,30,-23.7,133.88,71.6,3.36
303,the valley,20,AI,1523224800,74,18.22,-63.06,80.6,10.29
304,omsukchan,12,RU,1523227811,85,62.53,155.8,11.83,3.76
305,tucuman,80,PE,1523227858,73,-17.17,-70.89,59.35,1.52
306,terrace bay,0,CA,1523227910,100,48.78,-87.1,24.07,8.01
307,codrington,0,AU,1523228015,88,-28.95,153.24,72.31,3.53
308,hamilton,90,BM,1523224500,88,32.3,-64.78,66.2,26.4
309,barentu,0,ER,1523227889,55,15.11,37.59,58.81,2.19
310,pokrovsk,0,UA,1523227780,71,48.28,37.18,45.22,10.36
311,port elizabeth,40,US,1523224560,26,39.31,-74.98,46.4,13.87
312,leo,20,BF,1523227849,87,11.1,-2.1,73.93,2.86
313,grafton,0,AU,1523227866,81,-29.69,152.93,73.3,3.09
314,lompoc,1,US,1523226900,31,34.64,-120.46,78.8,19.46
315,barillas,8,ES,1523226600,87,41.97,-1.66,50.0,2.24
316,saskylakh,0,RU,1523227714,42,71.97,114.09,-13.55,2.98
317,ouesso,80,CG,1523227792,94,1.61,16.05,73.75,2.19
318,havoysund,0,NO,1523224200,58,71.0,24.66,30.2,9.17
319,acacias,36,CO,1523227926,69,5.51,-74.29,72.76,1.97
320,chihuahua,5,MX,1523223960,14,28.66,-106.08,91.4,4.7
321,cape town,0,ZA,1523224800,87,-33.93,18.42,53.6,1.12
322,thinadhoo,0,MV,1523227828,100,0.53,72.93,84.28,2.75
323,novyye burasy,0,RU,1523224800,60,52.13,46.08,39.2,11.18
324,wamba,48,CD,1523227746,98,2.14,27.99,66.46,2.75
325,gadsden,1,US,1523226900,62,34.01,-86.01,62.6,5.82
326,lidkoping,64,SE,1523226000,93,58.51,13.16,44.6,3.36
327,nikolskoye,0,RU,1523224800,69,59.7,30.79,39.2,4.47
328,qasigiannguit,56,GL,1523224200,86,68.82,-51.19,26.6,8.05
329,omaruru,8,NA,1523227807,90,-21.42,15.95,63.49,7.0
330,lavrentiya,0,RU,1523227919,100,65.58,-170.99,20.56,14.05
331,lethem,0,GY,1523228024,69,3.38,-59.8,80.68,11.92
332,sun city west,1,US,1523226900,10,33.66,-112.34,91.4,8.05
333,gladstone,0,AU,1523227992,77,-23.84,151.26,78.25,11.81
334,srednekolymsk,76,RU,1523227792,63,67.46,153.71,9.13,3.76
335,kununurra,20,AU,1523226600,78,-15.77,128.74,77.0,4.7
336,mongoumba,12,CD,1523227950,91,3.64,18.59,75.55,3.09
337,inverness,75,GB,1523226000,100,57.48,-4.23,44.6,1.12
338,canon city,0,US,1523227936,21,39.46,-117.13,51.16,8.12
339,sola,75,NO,1523226000,93,58.89,5.65,42.8,9.17
340,sirjan,0,IR,1523227961,51,29.44,55.67,46.48,2.86
341,yerbogachen,76,RU,1523227864,81,61.28,108.01,23.53,4.99
342,henties bay,8,NA,1523227857,93,-22.12,14.28,65.11,5.1
343,laguna,5,MX,1523223720,18,27.52,-110.01,87.8,9.17
344,huarmey,48,PE,1523227882,57,-10.07,-78.15,68.89,2.75
345,sangmelima,80,CM,1523227959,97,2.93,11.98,69.52,2.3
346,picota,40,PE,1523224800,70,-6.92,-76.33,84.2,3.36
347,xingcheng,32,CN,1523227995,41,40.62,120.71,48.01,9.69
348,talcahuano,40,CL,1523224800,87,-36.72,-73.12,59.0,8.05
349,norman wells,20,CA,1523224800,44,65.28,-126.83,21.2,2.24
350,kodiak,90,US,1523224380,100,39.95,-94.76,33.8,10.29
351,hutchinson,20,US,1523224560,70,38.06,-97.93,48.2,13.87
352,boma,0,NG,1523227963,48,11.23,4.46,80.95,7.34
353,tasiilaq,32,GL,1523224200,86,65.61,-37.64,26.6,1.12
354,filadelfia,8,PY,1523228021,48,-22.35,-60.04,83.2,8.01
355,namatanai,56,PG,1523227792,94,-3.66,152.44,85.18,5.21
356,volovo,0,RU,1523227874,88,53.55,38.01,31.18,9.69
357,iqaluit,40,CA,1523224800,77,63.75,-68.52,5.0,26.4
358,santiago del estero,48,AR,1523227890,91,-27.8,-64.26,73.21,2.86
359,mokhsogollokh,0,RU,1523228029,75,61.4,128.95,24.25,4.09
360,amot,80,NO,1523227836,100,59.57,7.99,32.98,0.74
361,severnyy-kospashskiy,92,RU,1523227778,91,59.09,57.8,30.55,14.72
362,bredasdorp,0,ZA,1523224800,82,-34.53,20.04,57.2,2.24
363,sainte-suzanne,0,CH,1523226600,81,47.51,6.77,57.2,5.44
364,dori,0,BF,1523227867,49,14.03,-0.03,76.63,4.99
365,honiara,20,SB,1523224800,83,-9.43,159.96,82.4,3.42
366,vilyuysk,64,RU,1523228000,74,63.75,121.63,18.49,5.99
367,indiana,90,US,1523225700,40,40.62,-79.15,37.4,11.41
368,sabinov,0,SK,1523224800,76,49.1,21.1,55.4,2.24
369,sibolga,48,ID,1523227758,100,1.74,98.78,68.8,2.19
370,jambi,88,ID,1523228031,100,-1.6,103.62,74.29,1.63
371,nijar,12,ES,1523226600,71,36.97,-2.21,57.2,14.99
372,thompson,90,CA,1523224800,35,55.74,-97.86,26.6,10.29
373,kapaa,75,US,1523224560,88,22.08,-159.32,75.2,16.11
374,duekoue,92,CI,1523227860,97,6.74,-7.35,73.84,3.98
375,talnakh,0,RU,1523227738,67,69.49,88.39,2.38,8.79
376,kruisfontein,20,ZA,1523227890,88,-34.0,24.73,66.01,13.82
377,vardo,20,US,1523225700,33,39.62,-77.74,48.2,17.22
378,aklavik,20,CA,1523224800,44,68.22,-135.01,17.6,3.36
379,esperance,20,TT,1523224800,74,10.24,-61.45,80.6,12.75
380,damaturu,0,NG,1523227859,41,11.75,11.96,68.44,4.76
381,bilma,0,NE,1523227794,28,18.69,12.92,62.23,2.75
382,gunupur,24,IN,1523227880,97,19.07,83.81,64.48,2.75
383,parabel,44,RU,1523227904,95,58.71,81.5,30.73,2.53
384,kungurtug,80,RU,1523228013,86,50.6,97.53,22.09,8.23
385,zhicheng,0,CN,1523228014,60,35.04,112.59,57.1,1.97
386,batavia,75,US,1523224440,57,43.0,-78.19,33.8,17.22
387,hasaki,20,JP,1523226600,70,35.73,140.83,48.2,5.82
388,singaparna,8,ID,1523227873,92,-7.35,108.11,67.63,2.19
389,sazonovo,0,RU,1523227918,92,54.2,39.81,33.79,12.48
390,cidreira,0,BR,1523227751,88,-30.17,-50.22,71.68,9.57
391,vaini,0,IN,1523227722,85,15.34,74.49,65.11,2.98
392,mar del plata,0,AR,1523227781,63,-46.43,-67.52,51.79,7.45
393,oussouye,0,SN,1523224800,83,12.49,-16.54,73.4,6.93
394,mahibadhoo,44,MV,1523228000,100,3.78,72.97,82.48,3.09
395,tefe,0,BR,1523224800,74,-3.35,-64.71,84.2,3.36
396,hilo,20,US,1523224380,69,19.71,-155.08,82.4,11.41
397,buraydah,0,SA,1523227832,93,26.33,43.97,56.02,2.98
398,tahoua,0,NE,1523227918,46,14.89,5.26,70.06,4.65
399,randazzo,40,IT,1523224500,87,37.88,14.95,64.4,20.8
400,yinchuan,0,CN,1523227954,29,38.48,106.21,42.16,5.77
401,rio grande,75,BR,1523223900,88,-32.03,-52.1,73.4,6.93
402,sioux lookout,40,CA,1523224800,23,50.1,-91.92,30.2,2.24
403,saint-joseph,92,FR,1523226600,67,43.56,6.97,59.0,12.75
404,meadow lake,20,CA,1523224800,50,54.13,-108.44,28.4,9.17
405,carnarvon,92,ZA,1523227722,83,-30.97,22.13,58.63,8.79
406,hudson bay,8,CA,1523227960,63,52.86,-102.4,26.77,2.42
407,chiredzi,80,ZW,1523227907,98,-21.05,31.67,70.06,10.25
408,vao,20,EE,1523227877,90,59.1,26.19,42.79,7.45
409,borgarnes,90,IS,1523224800,51,64.54,-21.92,39.2,12.75
410,takoradi,88,GH,1523227775,100,4.89,-1.75,76.0,7.0
411,arlit,0,NE,1523228051,19,18.74,7.39,65.65,4.65
412,praxedis guerrero,1,MX,1523224680,17,31.37,-106.02,87.8,24.16
413,georgetown,20,GY,1523224800,69,6.8,-58.16,80.6,6.93
414,aykhal,56,RU,1523228000,82,65.95,111.51,10.39,6.67
415,gao,0,ML,1523227957,21,16.28,-0.04,76.45,4.99
416,wasilla,1,US,1523224560,31,61.58,-149.44,48.2,6.93
417,port hedland,0,AU,1523226600,83,-20.31,118.58,82.4,4.7
418,los llanos de aridane,68,ES,1523226600,77,28.66,-17.92,64.4,26.4
419,roebourne,92,AU,1523228020,58,-20.77,117.15,82.66,8.23
420,nishihara,20,JP,1523226600,78,35.74,139.53,53.6,12.75
421,safford,1,US,1523224260,14,32.83,-109.71,87.8,21.92
422,darhan,92,MN,1523227843,93,49.49,105.92,36.94,7.0
423,tiznit,24,MA,1523227843,89,29.7,-9.73,57.01,10.47
424,nicoya,0,CR,1523224800,66,10.15,-85.45,84.2,11.41
425,coquimbo,90,CL,1523224800,77,-29.95,-71.34,60.8,4.7
426,karpathos,0,GR,1523226000,82,35.51,27.21,59.0,12.75
427,darnah,0,LY,1523227786,96,32.77,22.64,63.94,1.19
428,hailin,0,CN,1523227827,55,44.57,129.38,36.76,4.32
429,jumla,0,NP,1523227850,85,29.28,82.18,29.47,2.08
430,itoman,20,JP,1523226600,63,26.12,127.67,62.6,4.7
431,ajdabiya,24,LY,1523227813,47,30.75,20.22,61.51,9.24
432,san andres,44,PH,1523227989,100,13.32,122.68,80.05,17.07
433,whitehorse,75,CA,1523224800,30,60.72,-135.06,42.8,3.2
434,yafran,0,LY,1523228006,46,32.06,12.53,63.58,4.65
435,danane,68,CI,1523228032,97,7.26,-8.15,69.61,2.98
436,pevek,80,RU,1523227728,100,69.7,170.27,6.61,13.71
437,ceres,80,AR,1523228009,97,-29.88,-61.95,69.7,3.65
438,coahuayana,0,MX,1523227941,19,18.62,-100.35,87.16,2.42
439,chara,20,GR,1523224200,70,39.42,22.43,48.2,4.7
440,ushuaia,90,AR,1523224800,48,-54.81,-68.31,44.6,21.92
441,matara,8,PE,1523227888,74,-13.74,-72.9,47.2,1.86
442,puerto ayora,20,EC,1523224800,69,-0.74,-90.35,80.6,9.17
443,viedma,0,AR,1523227992,71,-40.81,-62.99,55.75,6.22
444,morant bay,20,JM,1523224800,70,17.88,-76.41,84.2,20.8
445,yarada,0,IN,1523227788,100,17.65,83.27,82.03,4.43
446,wembley,75,GB,1523226000,93,51.55,-0.3,51.8,3.36
447,egvekinot,0,RU,1523227761,85,66.32,-179.17,9.85,3.42
448,dingle,36,PH,1523227832,83,11.0,122.67,79.78,9.01
449,claveria,20,PH,1523227767,87,8.61,124.89,77.17,3.42
450,keffi,36,NG,1523227910,76,8.85,7.88,77.44,8.12
451,tuatapere,92,NZ,1523227884,100,-46.13,167.69,47.38,8.57
452,kimbe,92,PG,1523227943,100,-5.56,150.15,81.94,5.66
453,novokuznetsk,44,RU,1523227824,94,53.76,87.14,31.99,7.45
454,vostok,12,RU,1523227967,79,46.45,135.83,29.74,2.75
455,yar-sale,80,RU,1523227846,87,66.83,70.83,18.04,3.65
456,kuchera,0,IN,1523227925,51,26.99,73.97,69.88,4.76
457,lazarev,0,RU,1523227899,87,52.23,141.51,23.35,1.97
458,luang prabang,0,LA,1523227983,94,19.89,102.14,58.0,1.19
459,sobolevo,0,RU,1523227814,88,54.43,31.9,38.47,9.8
460,waingapu,0,ID,1523228009,90,-9.65,120.26,77.98,4.32
461,airai,0,TL,1523227722,53,-8.93,125.41,78.52,1.86
462,abu dhabi,0,AE,1523224800,57,24.47,54.37,78.8,2.24
463,northam,0,GB,1523226000,93,51.04,-4.21,48.2,2.24
464,altay,0,CN,1523227796,58,47.83,88.13,8.86,2.3
465,zaysan,0,KZ,1523227752,73,47.47,84.87,22.9,2.64
466,xining,0,CN,1523227759,65,36.62,101.77,19.75,2.64
467,bluff,0,AU,1523227723,52,-23.58,149.07,80.23,9.69
468,vangaindrano,80,MG,1523227907,95,-23.35,47.6,69.61,2.98
469,ahuimanu,75,US,1523226960,100,21.44,-157.84,78.8,5.82
470,homer,40,US,1523224380,39,59.64,-151.54,48.2,4.7
471,angoche,12,MZ,1523227961,100,-16.23,39.91,82.66,11.03
472,san cristobal,80,EC,1523227863,99,-0.39,-78.55,49.0,2.19
473,grootfontein,92,NA,1523227848,97,-19.56,18.1,61.06,4.21
474,aswan,0,EG,1523224800,18,24.09,32.9,71.6,13.87
475,shenjiamen,0,CN,1523227835,84,29.96,122.3,58.99,12.48
476,dwarka,64,IN,1523226600,54,28.58,77.04,78.8,9.17
477,petropavlovsk-kamchatskiy,40,RU,1523224800,55,53.05,158.65,33.8,15.66
478,fram,20,SI,1523224800,61,46.45,15.64,50.0,3.2
479,yulara,0,AU,1523224800,38,-25.24,130.99,60.8,9.17
480,ahipara,92,NZ,1523227789,100,-35.17,173.16,64.75,6.44
481,zeya,0,RU,1523228032,51,53.74,127.27,33.97,3.2
482,poplar bluff,1,US,1523226900,56,36.76,-90.39,42.8,8.05
483,bethel,1,US,1523224380,63,60.79,-161.76,28.4,10.29
484,havelock,1,US,1523224680,100,34.88,-76.9,53.6,6.93
485,patrocinio,76,PH,1523227986,100,13.72,123.64,77.53,8.01
486,ulaangom,0,MN,1523227953,80,49.98,92.07,17.05,2.98
487,bijie,32,CN,1523227923,81,27.3,105.3,49.36,2.75
488,port alfred,12,ZA,1523227722,87,-33.59,26.89,72.22,22.1
489,wanaka,36,NZ,1523227772,61,-44.7,169.14,46.75,2.19
490,tezu,92,IN,1523227817,100,27.93,96.16,55.21,1.63
491,coihaique,0,CL,1523224800,61,-45.58,-72.07,50.0,4.7
492,moussoro,0,TD,1523227900,13,13.64,16.49,75.55,12.59
493,moyale,68,ET,1523227754,97,3.52,39.05,64.66,3.31
494,houma,0,CN,1523227831,50,35.63,111.36,50.26,2.3
495,jiaonan,0,CN,1523224800,36,35.88,119.98,48.2,11.18
496,ust-barguzin,24,RU,1523227925,84,53.41,109.03,26.95,4.43
497,avera,1,US,1523226900,47,33.19,-82.53,60.8,4.7
498,pitimbu,75,BR,1523224800,88,-7.47,-34.81,77.0,10.29
499,mahebourg,40,MU,1523224800,78,-20.41,57.7,78.8,4.7
